{"type":"FeatureCollection","features":[{"type":"Feature","geometry":{"type":"Point","coordinates":[13.17,11.84]},"properties":{"name":"NEMA IDP Camp Maiduguri","capacity":3000,"address":"Maiduguri Stadium, Borno","status":"OPEN"}},{"type":"Feature","geometry":{"type":"Point","coordinates":[6.74,7.8]},"properties":{"name":"NEMA Shelter Lokoja","capacity":1500,"address":"Government Primary School, Kogi","status":"OPEN"}},{"type":"Feature","geometry":{"type":"Point","coordinates":[7.01,4.86]},"properties":{"name":"NEMA Shelter Port Harcourt","capacity":2000,"address":"Rivers State University Annex","status":"OPEN"}},{"type":"Feature","geometry":{"type":"Point","coordinates":[8.54,7.73]},"properties":{"name":"NEMA Shelter Makurdi","capacity":1200,"address":"Benue State University Campus","status":"OPEN"}},{"type":"Feature","geometry":{"type":"Point","coordinates":[6.27,4.92]},"properties":{"name":"Red Cross Shelter Yenagoa","capacity":800,"address":"NYSC Permanent Orientation Camp","status":"OPEN"}},{"type":"Feature","geometry":{"type":"Point","coordinates":[6.79,6.14]},"properties":{"name":"NEMA Shelter Onitsha","capacity":1800,"address":"Onitsha Central School","status":"OPEN"}},{"type":"Feature","geometry":{"type":"Point","coordinates":[5.75,5.52]},"properties":{"name":"NEMA Shelter Warri","capacity":1000,"address":"PTI Conference Center","status":"OPEN"}},{"type":"Feature","geometry":{"type":"Point","coordinates":[3.38,6.46]},"properties":{"name":"NEMA Shelter Lagos Mainland","capacity":2500,"address":"Lagos State Secretariat Annex","status":"OPEN"}},{"type":"Feature","geometry":{"type":"Point","coordinates":[3.51,6.62]},"properties":{"name":"NEMA Shelter Ikorodu","capacity":1000,"address":"Ikorodu Community Hall","status":"OPEN"}},{"type":"Feature","geometry":{"type":"Point","coordinates":[3.35,7.16]},"properties":{"name":"NEMA Shelter Abeokuta","capacity":800,"address":"Ogun State Secretariat","status":"OPEN"}},{"type":"Feature","geometry":{"type":"Point","coordinates":[8.53,12.0]},"properties":{"name":"NEMA Shelter Kano","capacity":2000,"address":"Kano State Emergency Centre","status":"OPEN"}},{"type":"Feature","geometry":{"type":"Point","coordinates":[7.44,10.52]},"properties":{"name":"NEMA Shelter Kaduna","capacity":1500,"address":"Kaduna State Stadium","status":"OPEN"}},{"type":"Feature","geometry":{"type":"Point","coordinates":[5.23,13.06]},"properties":{"name":"NEMA Shelter Sokoto","capacity":1000,"address":"Sokoto Central School","status":"OPEN"}},{"type":"Feature","geometry":{"type":"Point","coordinates":[4.2,12.45]},"properties":{"name":"NEMA Shelter Birnin Kebbi","capacity":800,"address":"Kebbi State School","status":"OPEN"}},{"type":"Feature","geometry":{"type":"Point","coordinates":[8.33,4.96]},"properties":{"name":"NEMA Shelter Calabar","capacity":1200,"address":"Calabar Municipal Hall","status":"OPEN"}},{"type":"Feature","geometry":{"type":"Point","coordinates":[9.78,7.87]},"properties":{"name":"NEMA Shelter Wukari","capacity":600,"address":"Wukari LGA Hall","status":"OPEN"}},{"type":"Feature","geometry":{"type":"Point","coordinates":[10.04,12.46]},"properties":{"name":"NEMA Shelter Hadejia","capacity":700,"address":"Hadejia Local School","status":"OPEN"}},{"type":"Feature","geometry":{"type":"Point","coordinates":[12.43,9.26]},"properties":{"name":"NEMA Shelter Yola","capacity":1000,"address":"Adamawa State Emergency Hall","status":"OPEN"}},{"type":"Feature","geometry":{"type":"Point","coordinates":[8.9,9.92]},"properties":{"name":"NEMA Shelter Jos","capacity":1500,"address":"Plateau State Stadium","status":"OPEN"}},{"type":"Feature","geometry":{"type":"Point","coordinates":[7.49,9.06]},"properties":{"name":"NEMA Shelter Abuja","capacity":3000,"address":"NEMA HQ Emergency Hall, FCT","status":"OPEN"}},{"type":"Feature","geometry":{"type":"Point","coordinates":[5.2,7.25]},"properties":{"name":"Red Cross Shelter Akure","capacity":800,"address":"Ondo State School","status":"OPEN"}},{"type":"Feature","geometry":{"type":"Point","coordinates":[7.03,5.48]},"properties":{"name":"NEMA Shelter Owerri","capacity":1000,"address":"Imo State Sports Complex","status":"OPEN"}},{"type":"Feature","geometry":{"type":"Point","coordinates":[7.85,5.01]},"properties":{"name":"NEMA Shelter Uyo","capacity":1200,"address":"Akwa Ibom State School","status":"OPEN"}},{"type":"Feature","geometry":{"type":"Point","coordinates":[3.9,7.38]},"properties":{"name":"NEMA Shelter Ibadan","capacity":2000,"address":"Oyo State Secretariat","status":"OPEN"}},{"type":"Feature","geometry":{"type":"Point","coordinates":[5.62,6.34]},"properties":{"name":"NEMA Shelter Benin City","capacity":1500,"address":"Edo State School","status":"OPEN"}},{"type":"Feature","geometry":{"type":"Point","coordinates":[7.49,6.46]},"properties":{"name":"NEMA Shelter Enugu","capacity":1200,"address":"Enugu State School","status":"OPEN"}},{"type":"Feature","geometry":{"type":"Point","coordinates":[6.78,6.12]},"properties":{"name":"NEMA Shelter Asaba","capacity":1000,"address":"Delta State School","status":"OPEN"}},{"type":"Feature","geometry":{"type":"Point","coordinates":[8.52,8.49]},"properties":{"name":"NEMA Shelter Lafia","capacity":800,"address":"Nasarawa State Hall","status":"OPEN"}},{"type":"Feature","geometry":{"type":"Point","coordinates":[6.56,9.61]},"properties":{"name":"NEMA Shelter Minna","capacity":1000,"address":"Niger State School","status":"OPEN"}},{"type":"Feature","geometry":{"type":"Point","coordinates":[4.58,8.5]},"properties":{"name":"NEMA Shelter Ilorin","capacity":1500,"address":"Kwara State Emergency Centre","status":"OPEN"}}]}